City,Cloudiness,Country,Date,Humidity,Lat,Lng,Max Temp,Wind Speed
Saskylakh,22,RU,1563513817,37,71.97,114.09,17.58,3.36
Barao de Melgaco,0,BR,1563513817,64,-16.19,-55.97,24.0,1.0
Albany,90,US,1563513816,78,42.65,-73.75,22.0,2.1
Hamilton,20,CA,1563513737,100,43.26,-79.87,25.0,2.6
Tuktoyaktuk,5,CA,1563513817,82,69.44,-133.03,14.0,4.1
Abu Zabad,41,SD,1563513818,64,12.35,29.25,26.88,4.34
Butaritari,26,KI,1563513818,66,3.07,172.79,29.18,2.11
Tasiilaq,19,GL,1563513818,100,65.61,-37.64,4.0,1.0
Tari,100,NG,1563513818,79,12.41,4.49,25.08,6.25
Atuona,1,PF,1563513819,67,-9.8,-139.03,26.68,1.85
Mount Isa,0,AU,1563513014,15,-20.73,139.49,24.0,2.1
Rikitea,0,PF,1563513819,70,-23.12,-134.97,20.28,10.82
Ponta do Sol,67,BR,1563513225,87,-20.63,-46.0,10.18,2.41
Cape Town,75,ZA,1563513819,71,-33.93,18.42,13.0,4.6
Qaqortoq,35,GL,1563513819,81,60.72,-46.03,10.0,1.0
Namibe,0,AO,1563513820,69,-15.19,12.15,21.58,1.63
Mataura,99,NZ,1563513820,95,-46.19,168.86,8.89,1.34
Sao Gabriel da Cachoeira,64,BR,1563513820,97,-0.13,-67.09,21.88,0.6
Castro,90,CL,1563513820,100,-42.48,-73.76,9.0,10.8
Bluff,0,AU,1563513820,34,-23.58,149.07,19.18,4.63
New Norfolk,20,AU,1563513821,44,-42.78,147.06,14.44,8.2
Orlik,0,PL,1563513821,87,53.95,17.74,17.78,0.5
Punta Arenas,40,CL,1563513650,86,-53.16,-70.91,1.0,4.1
Qaanaaq,95,GL,1563513821,83,77.48,-69.36,5.08,1.21
Lompoc,90,US,1563513821,87,34.64,-120.46,16.11,2.6
Sitka,39,US,1563513822,61,37.17,-99.65,28.89,4.47
Vaini,75,IN,1563513822,78,15.34,74.49,25.0,1.5
Luderitz,0,NA,1563513822,66,-26.65,15.16,12.0,2.1
Changping,20,CN,1563513822,62,40.22,116.23,31.67,2.0
Port Alfred,19,ZA,1563513822,89,-33.59,26.89,17.22,4.02
Ushuaia,90,AR,1563513823,95,-54.81,-68.31,2.0,2.44
Hobart,20,AU,1563513638,44,-42.88,147.33,14.44,8.2
Codrington,0,AU,1563513823,28,-28.95,153.24,22.0,3.6
Eirunepe,24,BR,1563513823,88,-6.66,-69.87,22.18,0.55
Cusuna,33,HN,1563513823,78,15.85,-85.23,26.88,3.73
Mackenzie,90,CA,1563513824,100,55.34,-123.09,12.0,1.5
Port Lincoln,0,AU,1563513824,60,-34.72,135.86,14.58,7.5
Sinnamary,28,GF,1563513824,82,5.38,-52.96,26.38,2.52
Maua,0,KE,1563513824,71,0.23,37.94,13.18,1.53
Klaksvik,58,FO,1563513824,100,62.23,-6.59,11.0,5.7
Esperance,0,AU,1563513825,30,-33.86,121.89,21.0,10.8
Marsh Harbour,1,BS,1563513767,74,26.54,-77.06,28.98,5.53
Hermanus,69,ZA,1563513825,96,-34.42,19.24,11.11,5.36
Chokurdakh,100,RU,1563513825,74,70.62,147.9,5.78,4.66
Tiksi,97,RU,1563513826,74,71.64,128.87,5.38,5.06
Teguise,75,ES,1563513826,68,29.06,-13.56,22.0,5.1
Hilo,90,US,1563513826,94,19.71,-155.08,23.89,6.25
Torrington,1,US,1563513826,64,42.06,-104.18,27.22,2.6
Thompson,90,CA,1563513826,77,55.74,-97.86,18.0,1.0
Bredasdorp,52,ZA,1563513827,71,-34.53,20.04,14.0,5.7
Bage,100,IN,1563513827,85,12.95,75.85,25.58,1.26
Sharjah,68,AE,1563513827,59,25.36,55.39,36.0,5.1
Winkler,1,CA,1563513827,60,49.19,-97.94,22.0,3.6
Hasaki,75,JP,1563513828,66,35.73,140.83,32.78,5.1
Belyy Yar,0,RU,1563513828,47,53.6,91.39,25.0,4.0
Bonavista,99,CA,1563513828,76,48.65,-53.11,13.89,4.92
Arraial do Cabo,7,BR,1563513828,77,-22.97,-42.02,17.58,4.72
Nordby,75,DK,1563513829,100,55.45,8.41,16.67,2.1
Busselton,62,AU,1563513829,92,-33.64,115.35,15.0,2.68
Hambantota,75,LK,1563513829,70,6.12,81.12,30.0,9.3
Mahibadhoo,100,MV,1563513829,77,3.78,72.97,28.58,9.98
Zhanaozen,0,KZ,1563513829,25,43.35,52.85,34.78,3.44
Ternate,20,PH,1563513830,62,14.29,120.72,33.33,5.1
Lensk,0,RU,1563513830,35,60.71,114.91,17.78,4.92
Dingle,80,PH,1563513830,73,11.0,122.67,29.98,7.0
Hohhot,75,CN,1563513830,88,40.81,111.65,21.0,3.0
Peniche,20,PT,1563513831,93,39.36,-9.38,17.22,6.2
Quatre Cocos,75,MU,1563513831,60,-20.21,57.76,24.0,6.7
Severo-Kurilsk,83,RU,1563513831,93,50.68,156.12,9.98,2.22
Carnarvon,100,ZA,1563513831,76,-30.97,22.13,10.08,9.18
Yagodnoye,100,RU,1563513831,90,62.52,149.63,7.28,2.03
Yellowknife,20,CA,1563513602,45,62.45,-114.38,18.0,4.6
Oytal,0,KZ,1563513832,8,42.91,73.27,38.48,3.8
Ratnagiri,91,IN,1563513259,83,16.98,73.3,27.78,3.21
Mar del Plata,67,AR,1563513832,65,-46.43,-67.52,4.78,8.17
Barrow,0,AR,1563513832,56,-38.31,-60.23,4.48,3.77
Bambous Virieux,75,MU,1563513832,60,-20.34,57.76,24.0,6.7
Puerto Ayora,23,EC,1563513833,89,-0.74,-90.35,21.11,1.34
Avarua,21,CK,1563513711,94,-21.21,-159.78,22.0,1.5
Lamar,1,US,1563513833,32,38.09,-102.62,29.0,7.7
Kahului,40,US,1563513833,78,20.89,-156.47,28.0,8.7
Sola,29,TZ,1563513256,49,-3.17,33.8,21.28,4.66
Geraldton,75,CA,1563513834,93,49.72,-86.95,17.0,3.1
Kimbe,100,PG,1563513834,77,-5.56,150.15,26.48,1.63
Sarh,0,TD,1563513834,94,9.14,18.39,23.0,2.53
Muros,90,ES,1563513834,93,42.77,-9.06,18.33,2.6
Fort Nelson,90,CA,1563513246,87,58.81,-122.69,15.0,1.5
Fairbanks,75,US,1563513835,56,64.84,-147.72,23.0,3.1
Yulara,0,AU,1563513835,17,-25.24,130.99,23.0,4.1
Iqaluit,90,CA,1563513835,81,63.75,-68.52,8.0,1.5
Pueblo Nuevo,0,AR,1563513835,64,-32.93,-68.73,4.0,1.0
Aripuana,0,BR,1563513836,59,-9.17,-60.63,21.48,0.61
Noyabrsk,0,RU,1563513836,49,63.2,75.45,28.68,0.87
Kapaa,20,US,1563513797,74,22.08,-159.32,29.0,7.2
Marawi,63,PH,1563513836,73,8.0,124.29,29.44,3.13
Portland,1,US,1563513670,93,43.66,-70.25,16.11,0.87
Hayden,1,US,1563513787,45,47.77,-116.79,19.0,1.5
Mogadishu,75,SO,1563513837,73,2.04,45.34,25.0,7.7
Inuvik,40,CA,1563513837,64,68.36,-133.71,21.0,3.6
Nome,1,US,1563513837,83,30.04,-94.42,29.44,1.5
Kenora,16,CA,1563513838,68,49.76,-94.48,22.0,4.1
Mangrol,0,IN,1563513838,36,25.33,76.51,36.78,2.73
Dikson,68,RU,1563513838,83,73.51,80.55,5.78,1.9
Saint George,0,GR,1563513838,88,39.45,22.34,25.0,1.25
Hovd,0,NO,1563513839,55,63.83,10.7,20.0,4.6
Carutapera,30,BR,1563513839,92,-1.2,-46.02,23.18,1.08
Salaga,100,GH,1563513839,94,8.55,-0.52,23.28,1.36
Kirakira,4,SB,1563513839,77,-10.46,161.92,27.88,4.02
Port Moresby,20,PG,1563513840,78,-9.47,147.16,26.0,7.7
Cabo San Lucas,5,MX,1563513840,61,22.89,-109.91,30.0,6.2
Provideniya,90,RU,1563513840,93,64.42,-173.23,14.0,5.0
Saint-Philippe,75,CA,1563513840,78,45.36,-73.48,25.0,2.6
Hirara,75,JP,1563513840,84,24.8,125.28,30.0,9.8
Bathsheba,40,BB,1563513841,83,13.22,-59.52,27.0,7.2
Keuruu,0,FI,1563513841,77,62.26,24.71,17.78,2.6
Pevek,21,RU,1563513841,91,69.7,170.27,0.78,1.34
Yonibana,100,SL,1563513841,99,8.44,-12.25,22.38,1.2
Great Yarmouth,0,GB,1563513842,93,52.61,1.73,15.0,2.1
Surt,0,LY,1563513586,64,31.21,16.59,25.38,3.99
Namatanai,78,PG,1563513291,81,-3.66,152.44,26.78,4.9
Gillette,1,US,1563513294,77,44.29,-105.5,21.11,4.17
Kangaatsiaq,100,GL,1563513842,92,68.31,-53.46,6.78,14.54
Nikolskoye,90,RU,1563513843,93,59.7,30.79,16.11,4.0
Praia,0,BR,1563513843,76,-20.25,-43.81,12.0,3.6
Kaitangata,100,NZ,1563513843,73,-46.28,169.85,10.0,2.68
Bosilegrad,0,RS,1563513843,76,42.5,22.47,16.67,0.45
Constitucion,93,MX,1563513843,64,23.99,-104.67,18.33,3.3
Torbay,40,CA,1563513844,67,47.66,-52.73,14.44,6.7
Cherskiy,23,RU,1563513844,55,68.75,161.3,7.18,8.1
Manokwari,9,ID,1563513844,73,-0.87,134.08,25.58,1.01
East London,0,ZA,1563513844,37,-33.02,27.91,19.0,3.6
Bocas del Toro,100,PA,1563513845,77,9.33,-82.25,13.33,2.06
Salinopolis,47,BR,1563513845,75,-0.61,-47.36,27.48,6.48
Vao,51,EE,1563513845,81,59.1,26.19,15.98,4.23
Mahebourg,75,MU,1563513845,60,-20.41,57.7,24.0,6.7
Bud,75,NO,1563513846,93,62.91,6.91,16.0,2.1
Gold Coast,0,AU,1563513618,56,-28.0,153.41,22.22,6.2
Hegang,33,CN,1563513846,47,47.34,130.28,28.18,0.58
Taoudenni,54,ML,1563513314,21,22.68,-3.98,35.78,8.49
Goderich,10,CA,1563513847,89,43.74,-81.71,24.44,3.58
Havre-Saint-Pierre,75,CA,1563513772,93,50.23,-63.6,11.0,2.02
Nishihara,75,JP,1563513847,66,35.74,139.53,32.78,2.1
Batagay,84,RU,1563513847,42,67.65,134.64,12.58,9.6
Sehithwa,0,BW,1563513847,31,-20.47,22.7,12.28,0.95
Alyangula,19,AU,1563513301,35,-13.85,136.42,29.0,3.6
Bilibino,40,RU,1563513848,45,68.06,166.44,10.08,2.63
Udachnyy,40,RU,1563513848,38,66.42,112.4,15.0,5.0
Candido Mendes,12,BR,1563513848,97,-1.45,-45.72,21.08,0.39
Zhezkazgan,0,KZ,1563513298,22,47.8,67.71,30.0,10.0
Kailua,90,US,1563513849,88,21.39,-157.74,28.0,4.6
Mackay,75,CA,1563513849,71,53.65,-115.58,13.0,6.2
Kongwa,1,TZ,1563513849,69,-6.19,36.41,18.58,3.31
Kothapet,75,IN,1563513849,79,17.37,78.55,29.0,2.1
Ribeira Grande,0,PT,1563513258,88,38.52,-28.7,22.68,6.76
Hwange,2,ZW,1563513850,47,-18.35,26.5,12.78,0.89
Souillac,90,FR,1563513850,88,45.6,-0.6,18.33,2.1
San Patricio,97,PY,1563513850,96,-26.98,-56.83,14.58,0.73
Benguela,26,AO,1563513294,86,-12.58,13.4,20.88,3.52
Puerto Madryn,56,AR,1563513624,48,-42.77,-65.04,8.78,11.07
Chuy,100,UY,1563513851,94,-33.69,-53.46,11.58,1.38
Tual,83,ID,1563513851,87,-5.67,132.75,25.38,6.74
Jamestown,0,AU,1563513851,43,-33.21,138.6,15.58,3.74
Lorengau,13,PG,1563513851,75,-2.02,147.27,28.88,5.3
Kalmunai,99,LK,1563513851,42,7.42,81.82,34.38,8.66
Shestakovo,53,RU,1563513852,41,56.49,103.96,25.48,3.78
Cockburn Town,93,TC,1563513741,79,21.46,-71.14,28.28,9.87
Dicabisagan,84,PH,1563513789,58,17.08,122.42,33.18,1.15
Leningradskiy,37,RU,1563513852,85,69.38,178.42,1.08,1.17
Yarmouth,40,CA,1563513852,93,43.84,-66.12,14.0,1.0
Flinders,0,AU,1563513314,34,-34.58,150.85,20.0,4.6
Chaman,0,AF,1563513853,18,30.92,66.46,37.38,6.71
Anloga,40,GH,1563513853,88,5.79,0.9,25.0,5.1
Poso,40,ID,1563513853,55,-1.4,120.75,25.18,2.72
Sabang,100,PH,1563513853,59,13.8,121.11,31.18,3.63
Salalah,75,OM,1563513853,83,17.01,54.1,28.0,2.1
Mataram,82,ID,1563513854,60,-5.32,105.06,28.88,1.66
Airai,12,TL,1563513854,56,-8.93,125.41,27.98,2.13
Najran,40,SA,1563513854,13,17.54,44.22,34.0,1.0
Broken Hill,0,AU,1563513854,31,-31.97,141.45,18.0,2.1
Camacha,40,PT,1563513854,73,33.08,-16.33,21.0,7.2
Poum,20,MK,1563513855,87,41.28,20.71,15.0,1.0
Plettenberg Bay,68,ZA,1563513855,80,-34.05,23.37,11.78,8.46
Toyooka,75,JP,1563513855,88,35.55,134.82,28.0,3.6
Upernavik,100,GL,1563513855,95,72.79,-56.15,7.48,5.97
Georgetown,20,GY,1563513856,94,6.8,-58.16,25.0,2.1
Hofn,100,IS,1563513856,96,64.25,-15.21,4.78,8.89
Te Anau,72,NZ,1563513856,89,-45.41,167.72,6.58,2.94
Vostok,64,RU,1563513856,64,46.45,135.83,24.98,2.81
Nassjo,0,SE,1563513857,87,57.65,14.7,13.33,1.0
Beloha,0,MG,1563513857,50,-25.17,45.06,21.18,1.83
Los Llanos de Aridane,90,ES,1563513857,60,28.66,-17.92,22.0,6.2
Kodiak,1,US,1563513857,66,39.95,-94.76,30.0,7.2
Liwale,65,TZ,1563513857,70,-9.8,37.92,18.78,3.76
Dzaoudzi,0,YT,1563513858,74,-12.79,45.27,26.0,2.6
Bodden Town,17,KY,1563513858,72,19.28,-81.25,28.33,1.34
Katherine,41,AU,1563513858,20,-14.47,132.26,31.0,8.2
Honningsvag,0,NO,1563513858,67,70.98,25.97,15.0,3.1
Boyolangu,40,ID,1563513859,60,-8.09,111.9,27.48,3.47
Porto Walter,1,BR,1563513859,83,-8.27,-72.74,20.88,0.74
Viedma,67,AR,1563513859,52,-40.81,-62.99,7.48,6.23
Itarema,42,BR,1563513859,95,-2.92,-39.92,21.38,2.0
Coquimbo,90,CL,1563513859,100,-29.95,-71.34,10.0,1.5
Robertson,0,AU,1563513860,34,-34.59,150.59,19.44,4.6
Acajutla,100,SV,1563513860,74,13.59,-89.83,28.48,3.14
Belle Glade,1,US,1563513860,100,26.68,-80.67,29.0,2.16
Lebu,75,ET,1563513860,93,8.96,38.73,12.0,0.5
Verkh-Usugli,81,RU,1563513861,43,52.7,115.17,26.78,1.3
Waconia,1,US,1563513861,88,44.85,-93.79,25.56,0.86
Altay,19,CN,1563513861,22,47.83,88.13,21.98,2.93
Ganta,100,LR,1563513861,99,7.31,-8.54,21.28,1.09
Mega,71,ET,1563513861,74,4.06,38.32,20.18,8.88
Kapuskasing,75,CA,1563513862,93,49.42,-82.43,19.0,5.1
Obo,9,CF,1563513862,93,5.39,26.49,22.18,0.45
Orichi,0,RU,1563513862,61,58.4,49.06,20.58,3.23
Broome,0,GB,1563513862,93,52.47,1.45,13.89,2.1
Noumea,0,NC,1563513863,53,-22.28,166.46,23.0,4.6
Luza,5,RU,1563513863,57,60.63,47.26,19.08,2.8
Dubbo,0,AU,1563513863,41,-32.25,148.6,16.0,3.1
Nanlong,48,CN,1563513863,67,31.35,106.05,31.38,3.01
Huejuquilla el Alto,40,MX,1563513863,74,22.63,-103.9,20.28,0.26
Kitab,0,UZ,1563513864,19,39.12,66.88,36.0,3.1
Sibolga,100,ID,1563513864,83,1.74,98.78,26.38,4.74
Teguldet,7,RU,1563513864,40,57.31,88.17,28.98,1.33
Ambilobe,0,MG,1563513864,44,-13.19,49.05,26.58,5.13
Mehamn,0,NO,1563513865,82,71.03,27.85,15.0,4.6
Oyama,75,JP,1563513865,70,36.31,139.8,32.78,3.6
Vaasa,0,FI,1563513865,87,63.1,21.62,15.56,2.1
Ancud,90,CL,1563513310,100,-41.87,-73.83,9.0,12.3
Klyuchi,14,RU,1563513865,43,52.25,79.17,26.48,5.05
Guerrero Negro,0,MX,1563513866,88,27.97,-114.04,18.58,6.56
San Quintin,100,PH,1563513866,77,17.54,120.52,28.98,6.86
Beringovskiy,95,RU,1563513866,80,63.05,179.32,14.58,0.94
Comodoro Rivadavia,51,AR,1563513866,61,-45.87,-67.48,9.0,13.9
Lahijan,40,IR,1563513866,78,37.21,50.0,29.0,3.1
Sao Francisco,75,BR,1563513867,93,-25.65,-53.85,14.0,2.1
Gazanjyk,0,TM,1563513294,27,39.24,55.52,36.98,4.88
Pangnirtung,76,CA,1563513867,61,66.15,-65.72,9.08,2.42
Aklavik,40,CA,1563513307,64,68.22,-135.01,21.0,3.6
Phichit,40,TH,1563513867,46,16.44,100.37,34.0,3.1
Tomatlan,86,MX,1563513868,83,19.93,-105.25,26.78,2.43
Mata,0,PT,1563513868,94,40.68,-7.46,18.33,1.29
Bejar,0,AL,1563513868,59,40.49,19.83,23.48,1.07
Gat,20,SN,1563513868,83,14.69,-16.54,24.0,6.7
Khatanga,55,RU,1563513868,31,71.98,102.47,21.28,4.15
Nouadhibou,0,MR,1563513869,82,20.93,-17.03,20.0,8.7
Kodinsk,100,RU,1563513869,66,58.6,99.18,17.48,3.73
Hithadhoo,90,MV,1563513628,80,-0.6,73.08,27.48,6.61
Talaya,90,RU,1563513869,82,55.79,84.89,20.0,1.0
Tommot,78,RU,1563513869,42,58.97,126.27,17.38,3.86
Pisco,90,PE,1563513870,82,-13.71,-76.2,16.0,2.6
Shimoda,75,JP,1563513870,88,34.7,138.93,29.44,10.8
Cuamba,92,MZ,1563513870,69,-14.8,36.54,18.38,0.5
Bulgan,99,MN,1563513870,69,48.81,103.53,19.68,0.44
Turtas,72,RU,1563513871,42,58.94,69.13,25.88,1.82
Faanui,36,PF,1563513871,64,-16.48,-151.75,24.38,6.99
Pitimbu,0,BR,1563513871,94,-7.47,-34.81,21.0,3.1
Miraflores,0,PE,1563513871,20,-16.39,-71.52,14.0,5.7
Norman Wells,20,CA,1563513871,46,65.28,-126.83,23.0,3.1
Bintulu,75,MY,1563513872,70,3.17,113.03,32.0,2.1
Alice Springs,0,AU,1563513872,18,-23.7,133.88,22.0,3.1
San Andres,100,PH,1563513872,66,13.32,122.68,30.58,5.43
Along,22,IN,1563513295,61,28.17,94.8,23.98,2.72
Sikandarabad,40,IN,1563513872,70,28.45,77.7,31.0,2.6
Kudat,75,MY,1563513873,70,6.89,116.84,32.0,2.1
Ahipara,100,NZ,1563513873,71,-35.17,173.16,14.88,8.05
Kamaishi,75,JP,1563513873,65,39.28,141.86,28.0,4.6
Todos Santos,5,MX,1563513873,37,23.45,-110.23,30.0,3.25
Inirida,93,CO,1563513874,97,3.87,-67.92,22.38,0.18
Muriti,20,TZ,1563513874,77,-1.99,32.93,20.0,5.1
Turukhansk,66,RU,1563513874,33,65.8,87.96,24.88,7.52
Luena,0,AO,1563513875,49,-11.78,19.91,9.38,1.47
Shingu,75,JP,1563513875,100,33.72,135.99,24.0,2.1
Avera,1,US,1563513875,100,33.19,-82.53,26.11,1.68
Panama City,20,US,1563513580,79,30.16,-85.65,29.0,1.5
Pacific Grove,90,US,1563513312,82,36.62,-121.92,17.22,2.1
Erzin,40,TR,1563513875,69,36.95,36.2,27.22,3.6
Banda Aceh,100,ID,1563513876,85,5.56,95.32,27.08,9.53
Trincomalee,100,LK,1563513876,54,8.58,81.23,31.88,6.22
Dunedin,100,NZ,1563513839,85,-45.87,170.5,10.0,5.81
Winslow,60,GB,1563513876,93,51.94,-0.88,14.0,2.1
Clyde River,90,CA,1563513877,100,70.47,-68.59,2.0,2.6
Macklin,99,CA,1563513877,94,52.34,-109.94,9.98,5.0
Ostrovnoy,79,RU,1563513300,63,68.05,39.51,11.58,4.84
Iskateley,100,RU,1563513877,93,67.68,53.15,8.18,8.18
Carhuamayo,64,PE,1563513877,92,-10.92,-76.06,0.18,2.99
Amalapuram,90,IN,1563513779,74,16.58,82.0,30.0,2.6
Flekkefjord,95,NO,1563513878,92,58.3,6.66,14.44,0.56
Kyabram,85,AU,1563513878,68,-36.31,145.05,14.44,2.69
Soyo,75,AO,1563513878,94,-6.13,12.37,23.0,2.21
Husavik,0,CA,1563513878,76,50.56,-96.99,19.44,4.7
Touros,20,BR,1563513879,94,-5.2,-35.46,21.0,2.1
Lazaro Cardenas,74,MX,1563513879,54,28.39,-105.62,23.48,0.28
Putina,22,PE,1563513879,90,-14.91,-69.87,0.08,0.39
Hay River,20,CA,1563513879,71,60.82,-115.79,14.0,2.1
Bethel,90,US,1563513879,82,60.79,-161.76,16.0,5.1
Karaton,20,ID,1563513880,46,-6.34,106.1,33.0,7.2
Gubbi,100,IN,1563513880,63,13.31,76.94,27.58,5.47
Nacala,32,MZ,1563513880,69,-14.56,40.69,22.98,3.14
Kampot,75,KH,1563513880,88,10.62,104.18,27.0,1.0
Agadez,1,NE,1563513881,54,16.97,7.99,29.0,3.6
Port Augusta,0,AU,1563513881,32,-32.49,137.76,20.0,7.2
Siguiri,33,GN,1563513881,98,11.42,-9.17,21.68,1.89
Saldanha,0,PT,1563513881,66,41.42,-6.55,18.68,1.7
Kankaanpaa,0,FI,1563513298,72,61.8,22.42,18.33,1.5
Bartica,20,GY,1563513882,94,6.41,-58.62,25.0,2.1
Faya,0,SA,1563513882,29,18.39,42.45,26.0,2.1
Powell River,75,CA,1563513693,93,49.84,-124.52,14.44,1.5
Arzgir,0,RU,1563513882,49,45.37,44.21,25.68,4.56
Elizabeth City,1,US,1563513883,83,36.3,-76.22,28.0,3.6
Lagoa,0,PT,1563513883,68,37.14,-8.45,22.0,2.1
Birao,100,CF,1563513883,87,10.3,22.78,23.48,1.67
Qasigiannguit,100,GL,1563513883,93,68.82,-51.19,8.0,4.1
Bereda,90,ES,1563513884,93,43.27,-7.54,18.89,1.0
Neuquen,0,AR,1563513694,86,-38.95,-68.06,1.0,0.79
Machala,6,EC,1563513884,98,-3.26,-79.96,18.68,0.27
Sindor,100,RU,1563513884,94,62.87,51.9,9.98,1.55
Kungurtug,13,RU,1563513885,27,50.6,97.53,26.58,1.38
Nioki,0,CD,1563513885,62,-2.72,17.69,26.18,2.3
Port Elizabeth,1,US,1563513885,100,39.31,-74.98,26.11,2.1
Kruisfontein,66,ZA,1563513885,84,-34.0,24.73,11.48,15.08
Sao Filipe,89,CV,1563513885,85,14.9,-24.5,23.68,5.12
Dongsheng,13,CN,1563513886,67,29.72,112.52,31.68,4.18
Victoria,75,BN,1563513860,62,5.28,115.24,33.0,2.1
Novopokrovka,0,UA,1563513886,68,49.84,36.56,18.0,3.0
Mount Gambier,90,AU,1563513886,71,-37.83,140.78,12.0,4.6
Orsk,0,RU,1563513886,16,51.23,58.47,33.0,7.0
Atlantic Beach,1,US,1563513887,94,30.33,-81.4,27.78,1.24
Whitianga,97,NZ,1563513887,94,-36.83,175.7,12.78,2.95
Kudahuvadhoo,99,MV,1563513887,73,2.67,72.89,28.28,7.25
Laguna,90,BZ,1563513887,100,16.17,-88.94,25.0,3.1
Itoman,90,JP,1563513888,88,26.12,127.67,30.0,11.8
Cukai,75,MY,1563513888,66,4.25,103.42,32.0,4.1
Vangaindrano,0,MG,1563513888,85,-23.35,47.6,19.48,1.01
Malanje,0,AO,1563513889,35,-9.54,16.35,13.98,2.5
Phangnga,75,TH,1563513889,74,8.45,98.53,29.0,3.6
Central Point,1,US,1563513889,49,42.38,-122.91,21.0,2.1
Vila Franca do Campo,75,PT,1563513889,94,37.72,-25.43,21.0,4.6
Dawlatabad,0,AF,1563513889,7,36.41,64.91,39.88,8.19
San Cristobal,36,HN,1563513890,90,14.68,-86.92,17.78,1.98
Sur,0,OM,1563513890,62,22.57,59.53,31.18,4.89
Alibag,40,IN,1563513890,79,18.64,72.88,29.0,4.1
Kavieng,2,PG,1563513890,75,-2.57,150.8,28.88,6.55
Auki,100,NG,1563513891,86,12.18,6.51,22.78,6.51
Laredo,1,US,1563513891,55,27.51,-99.51,30.0,9.3
Ecoporanga,23,BR,1563513891,90,-18.37,-40.83,13.48,1.83
College,75,US,1563513891,56,64.86,-147.8,23.0,3.1
Inhambane,20,MZ,1563513891,93,-23.87,35.38,17.0,4.61
Nanortalik,21,GL,1563513892,90,60.14,-45.24,5.18,0.92
Vanderhoof,100,CA,1563513892,82,54.02,-124.02,9.98,3.04
Jinchang,0,CN,1563513304,19,38.52,102.19,26.38,3.98
Baker City,1,US,1563513892,36,44.77,-117.83,17.0,2.86
Ossora,100,RU,1563513892,96,59.24,163.07,13.68,1.11
Eatonton,1,US,1563513892,88,33.33,-83.39,25.0,1.68
San Blas,96,MX,1563513893,67,21.54,-105.29,29.48,1.96
Ust-Kuyga,100,RU,1563513893,60,70.0,135.55,8.08,7.39
Una,29,IN,1563513893,44,31.47,76.27,34.38,4.33
Lambarene,97,GA,1563513893,91,-0.7,10.22,22.88,1.35
Munsingen,0,DE,1563513894,82,48.41,9.5,18.33,1.0
Bellavista,99,MX,1563513894,81,21.56,-104.88,22.22,0.1
Cidreira,14,BR,1563513894,96,-30.17,-50.22,13.98,2.53
Mnogovershinnyy,95,RU,1563513894,71,53.94,139.92,22.88,0.54
Mariental,75,BR,1563513895,87,-25.72,-49.65,12.78,3.6
Sambava,11,MG,1563513895,63,-14.27,50.17,23.08,1.79
Cabedelo,0,BR,1563513895,94,-6.97,-34.84,21.0,3.1
Roald,75,NO,1563513895,87,62.58,6.12,15.0,1.5
Alofi,56,NU,1563513896,94,-19.06,-169.92,23.0,3.6
Necochea,0,AR,1563513896,96,-38.55,-58.74,-1.11,1.34
Aasiaat,100,GL,1563513896,94,68.71,-52.87,6.18,10.02
Puro,77,PH,1563513896,73,13.13,123.76,29.38,4.78
Kavaratti,100,IN,1563513310,80,10.57,72.64,26.98,11.91
Kasongo,0,CD,1563513896,44,-4.43,26.67,24.78,2.73
Kununurra,31,AU,1563513897,11,-15.77,128.74,32.0,2.6
Paso de Carrasco,0,UY,1563513897,93,-34.86,-56.05,12.22,4.6
Reo,91,BF,1563513897,58,12.32,-2.47,27.38,2.8
Maceio,75,BR,1563513409,83,-9.67,-35.74,23.0,2.6
Acapulco,75,MX,1563513898,65,16.86,-99.88,28.0,2.1
Zapolyarnyy,75,RU,1563513898,81,69.43,30.82,11.0,5.7
Sumbe,43,AO,1563513898,83,-11.2,13.84,21.48,4.59
Les Cayes,0,HT,1563513898,76,18.19,-73.75,27.88,6.4
Gangarampur,9,IN,1563513898,48,25.41,88.52,36.08,3.45
Mpika,2,ZM,1563513899,60,-11.84,31.4,16.58,5.27
Bela pod Bezdezem,0,CZ,1563513899,63,50.5,14.8,20.0,1.0
Williamsport,1,US,1563513899,94,41.25,-77.0,23.89,0.87
Cowra,94,AU,1563513899,71,-33.84,148.69,10.0,0.89
Fortuna,0,ES,1563513900,78,38.18,-1.13,22.22,2.1
Carmarthen,95,GB,1563513900,93,51.86,-4.31,16.67,10.3
Matay,0,EG,1563513900,45,28.42,30.79,28.38,5.86
Pimentel,29,BR,1563513900,98,-3.7,-45.5,20.38,0.8
Grand Gaube,75,MU,1563513900,60,-20.01,57.66,24.0,6.7
Grindavik,75,IS,1563513901,81,63.84,-22.43,12.22,8.2
Uvira,0,CD,1563513901,72,-3.41,29.14,13.58,1.48
Sandpoint,1,US,1563513741,66,48.28,-116.55,17.78,1.19
Redmond,90,US,1563513608,82,47.67,-122.12,15.0,3.71
Ornskoldsvik,92,SE,1563513901,93,63.29,18.72,14.0,1.0
Kiruna,0,SE,1563513905,71,67.86,20.23,13.0,1.5
Mountain Home,1,US,1563513905,33,43.13,-115.69,24.0,2.6
Muscat,20,OM,1563513905,79,23.6,58.55,31.0,3.6
Talnakh,0,RU,1563513905,35,69.49,88.39,23.0,9.0
Mairana,73,BO,1563513906,98,-18.12,-63.96,12.98,0.75
Hualmay,96,PE,1563513906,86,-11.1,-77.61,16.08,6.19
Ust-Kut,99,RU,1563513906,34,56.78,105.75,23.18,3.95
Charagua,91,BO,1563513906,94,-19.79,-63.2,15.28,0.78
Lebork,0,PL,1563513906,87,54.54,17.75,19.44,0.5
Oranjemund,12,ZA,1563513907,91,-28.55,16.43,13.88,2.51
Chebsara,75,RU,1563513907,88,59.2,38.84,17.0,4.0
Champerico,90,MX,1563513907,88,16.38,-93.6,23.0,1.85
Mantua,0,IT,1563513908,82,45.16,10.79,22.22,2.6
Sorland,0,NO,1563513908,55,67.67,12.69,17.0,4.1
Lerwick,15,GB,1563513908,93,60.15,-1.15,13.0,0.5
Nkoteng,100,CM,1563513908,97,4.5,12.12,20.58,1.68
Caravelas,21,BR,1563513909,75,-17.73,-39.27,20.98,4.09
Kalianget,64,ID,1563513909,63,-7.35,109.91,27.78,3.67
Anadyr,75,RU,1563513909,72,64.73,177.51,18.0,3.0
Berlevag,0,NO,1563513909,87,70.86,29.09,13.0,4.1
Huilong,75,CN,1563513909,68,31.15,106.5,31.48,2.4
Mathbaria,62,BD,1563513892,52,22.29,89.96,34.88,3.78
Villa Carlos Paz,75,AR,1563513910,56,-31.42,-64.5,9.44,1.0
Kayes,96,ML,1563513910,78,14.44,-11.44,25.78,7.41
Arica,90,CL,1563513910,72,-18.48,-70.32,16.0,2.1
Saint-Augustin,1,CA,1563513911,77,45.63,-73.98,24.0,1.0
Mairwa,61,IN,1563513911,44,26.24,84.15,36.38,2.85
Sao Jose da Coroa Grande,25,BR,1563513911,95,-8.9,-35.15,20.28,1.91
Preobrazheniye,10,RU,1563513911,58,42.9,133.91,27.18,2.73
Gravdal,75,NO,1563513912,93,59.79,5.78,13.33,5.1
Mazabuka,0,ZM,1563513912,56,-15.86,27.75,13.68,0.95
Neftcala,70,AZ,1563513912,34,39.37,49.25,32.48,6.55
Fare,17,PF,1563513784,66,-16.7,-151.02,24.08,7.3
Tautira,20,PF,1563513913,60,-17.73,-149.15,23.0,1.5
Vestmannaeyjar,95,IS,1563513913,81,63.44,-20.27,11.78,7.99
Gaspe,20,CA,1563513913,87,48.83,-64.48,11.0,2.1
Port Hedland,64,AU,1563513913,16,-20.31,118.58,29.0,4.1
Padang,96,ID,1563513913,80,-0.92,100.36,27.18,2.32
Zurrieq,20,MT,1563513914,88,35.83,14.47,23.33,1.0
Riofrio,20,CO,1563513914,100,4.16,-76.29,22.0,0.83
Banepa,75,NP,1563513914,74,27.63,85.52,27.0,2.1
Saint-Pierre,75,FR,1563513915,93,48.95,4.24,19.0,1.5
Sioux Lookout,75,CA,1563513915,88,50.1,-91.92,18.0,4.6
Lezajsk,0,PL,1563513915,77,50.26,22.42,18.33,0.5
Wattegama,99,LK,1563513916,89,7.35,80.68,24.78,5.13
Samarai,74,PG,1563513916,86,-10.62,150.67,22.88,3.1
Euclides da Cunha,99,BR,1563513916,91,-10.51,-39.01,17.78,4.59
Kokopo,76,PG,1563513916,92,-4.34,152.27,25.68,0.75
Cody,1,US,1563513916,59,44.53,-109.06,22.22,7.7
Chuguyevka,50,RU,1563513917,85,44.17,133.87,25.28,2.53
Sinnai,0,IT,1563513917,94,39.3,9.2,23.0,3.1
Tuatapere,98,NZ,1563513917,95,-46.13,167.69,8.89,1.34
Navirai,100,BR,1563513917,89,-23.07,-54.19,14.38,2.88
Sangar,33,RU,1563513918,29,63.92,127.47,17.38,6.33
Amuntai,81,ID,1563513918,43,-2.42,115.25,34.18,2.59
Abu Samrah,0,SY,1563513918,54,35.3,37.18,26.38,5.39
Bambanglipuro,8,ID,1563513918,86,-7.95,110.28,23.98,9.47
Ngunut,62,ID,1563513918,65,-8.11,112.01,26.98,5.45
Cairns,0,AU,1563513284,44,-16.92,145.77,24.0,7.7
Ruteng,62,ID,1563513919,68,-8.61,120.46,27.58,3.39
Hibbing,20,US,1563513919,73,47.43,-92.94,23.0,1.5
Maniitsoq,100,GL,1563513919,88,65.42,-52.9,7.18,7.67
Bubaque,100,GW,1563513919,82,11.28,-15.83,26.58,9.24
Idappadi,90,IN,1563513920,94,9.71,76.71,25.0,6.2
Nekhayevskiy,39,RU,1563513920,59,50.41,41.76,20.78,3.38
Ayan,0,IR,1563513920,23,38.23,44.7,20.08,3.33
Abbeville,90,FR,1563513920,93,50.11,1.83,16.0,1.0
Boguchany,100,RU,1563513920,94,58.38,97.46,15.48,2.78
Marzuq,89,YE,1563513921,26,14.4,46.47,30.18,1.72
Matara,0,BI,1563513921,72,-3.48,29.48,13.58,1.48
Russell,1,US,1563513921,55,38.9,-98.86,30.0,7.7
Narsaq,35,GL,1563513921,81,60.91,-46.05,10.0,1.0
Thinadhoo,100,MV,1563513667,74,0.53,72.93,27.88,6.08
Baturaja,93,ID,1563513922,54,-4.12,104.17,30.58,2.5
Saint-Francois,0,FR,1563513922,93,46.42,3.91,12.22,1.5
Nytva,0,RU,1563513922,64,57.94,55.33,21.0,3.0
Krivosheino,0,RU,1563513923,50,57.34,83.93,26.28,3.47
Bestobe,0,KZ,1563513923,38,52.5,73.1,26.98,4.3
Khvastovichi,75,RU,1563513923,82,53.47,35.09,15.0,5.0
Portel,13,BR,1563513923,98,-1.94,-50.82,21.98,0.65
Kendari,30,ID,1563513924,83,-3.99,122.52,27.38,2.4
Igarka,0,RU,1563513924,34,67.47,86.57,24.08,8.03
Kjollefjord,0,NO,1563513725,82,70.95,27.35,15.0,4.6
Banjarmasin,97,ID,1563513673,72,-3.32,114.59,29.18,2.21
Odienne,54,CI,1563513924,96,9.51,-7.57,21.08,1.36
Oda,75,JP,1563513924,74,35.19,132.5,28.0,2.6
Kondinskoye,0,RU,1563513925,52,59.65,67.41,23.48,2.57
Thiadiaye,20,SN,1563513925,83,14.42,-16.71,24.0,6.7
Valparaiso,1,US,1563513925,83,41.47,-87.06,28.33,3.1
Isangel,75,VU,1563513925,65,-19.55,169.27,25.0,4.1
Riverton,1,US,1563513925,28,43.02,-108.38,25.0,3.1
Sampang,45,ID,1563513926,62,-7.54,109.46,28.28,5.04
Richards Bay,10,ZA,1563513926,33,-28.77,32.06,19.58,2.32
Zhigansk,0,RU,1563513926,37,66.77,123.37,16.98,9.96
Price,1,US,1563513798,20,39.6,-110.81,23.0,2.1
Godfrey,1,US,1563513926,88,38.96,-90.19,29.0,1.5
Slave Lake,90,CA,1563513927,93,55.28,-114.77,14.0,5.7
Yumen,0,CN,1563513927,14,40.29,97.04,31.58,2.07
Waddan,0,LY,1563513927,65,29.16,16.14,22.68,3.4
Havoysund,0,NO,1563513725,59,71.0,24.66,17.0,6.2
Katsuura,90,JP,1563513927,94,33.93,134.5,24.0,5.1
Andra,2,RU,1563513928,59,62.52,65.89,20.88,3.94
Serpukhov,75,RU,1563513928,87,54.92,37.42,14.0,4.0
Chapleau,42,CA,1563513928,98,47.85,-83.4,16.08,3.55
Fort Smith,1,US,1563513928,83,35.39,-94.42,27.0,1.5
Bandarbeyla,100,SO,1563513928,36,9.49,50.81,31.18,14.1
Khuzhir,1,RU,1563513929,36,53.19,107.35,26.08,2.31
Yorosso,71,ML,1563513929,73,12.35,-4.78,25.68,3.34
Saint Anthony,40,US,1563513929,40,43.97,-111.68,22.0,6.7
Anori,62,BR,1563513929,89,-3.74,-61.66,22.48,0.85
Tambo,26,PE,1563513929,94,-12.95,-74.02,4.28,0.83
Petropavlovsk-Kamchatskiy,20,RU,1563513930,47,53.05,158.65,27.0,6.0
Khandyga,100,RU,1563513930,62,62.65,135.58,12.88,3.4
Tigre,75,AR,1563513930,93,-34.42,-58.58,12.22,3.1
Severnoye,98,RU,1563513930,83,54.09,52.54,22.38,4.1
Cuajinicuilapa,100,MX,1563513930,95,16.47,-98.41,23.38,1.85
Longyearbyen,75,NO,1563513931,75,78.22,15.63,7.0,5.7
Brae,20,GB,1563513931,93,60.4,-1.35,13.0,4.1
Maues,24,BR,1563513931,89,-3.38,-57.72,22.98,0.58
Naze,100,NG,1563513931,94,5.43,7.07,23.18,2.6
Arti,21,RU,1563513931,59,56.43,58.53,25.68,2.41
Sisimiut,100,GL,1563513932,88,66.94,-53.67,6.78,16.65
Crateus,1,BR,1563513932,61,-5.18,-40.68,19.28,3.34
Howard Springs,0,AU,1563513933,19,-12.5,131.05,32.78,3.6
Port Blair,40,IN,1563513798,74,11.67,92.75,31.0,4.1
Oktyabrskiy,75,RU,1563513933,87,55.61,37.97,15.0,3.0
Penzance,90,GB,1563513933,100,50.12,-5.53,17.22,9.8
Balatan,98,PH,1563513933,73,13.32,123.23,29.88,6.51
Astoria,40,US,1563513934,72,46.19,-123.83,17.22,4.1
Bauchi,100,NG,1563513934,97,10.31,9.85,18.68,4.37
Pochutla,75,MX,1563513934,88,15.74,-96.47,25.56,2.6
Maragogi,25,BR,1563513934,95,-9.01,-35.22,20.28,1.91
Madimba,75,CM,1563513935,94,4.42,9.93,23.0,1.07
Rantauprapat,100,ID,1563513935,89,2.1,99.83,24.18,1.1
Sao Joao da Barra,8,BR,1563513935,88,-21.64,-41.05,13.18,0.38
Nemuro,75,JP,1563513935,100,43.32,145.57,19.0,3.6
LUGOBA,67,TZ,1563513935,76,-6.46,38.33,20.98,2.2
Calderitas,25,MX,1563513936,95,18.55,-88.26,23.18,1.31
Puerto Baquerizo Moreno,44,EC,1563513936,86,-0.9,-89.6,20.68,6.06
Takoradi,100,GH,1563513936,94,4.89,-1.75,23.28,1.78
Marsaxlokk,20,MT,1563513936,88,35.84,14.54,23.33,1.0
Kupang,29,ID,1563513937,76,-10.16,123.6,25.48,5.81
Carolina,40,PR,1563513684,83,18.38,-65.96,28.0,4.1
Umm Lajj,58,SA,1563513937,76,25.02,37.27,30.58,6.73
Den Helder,75,NL,1563513639,100,52.96,4.76,17.0,1.0
Baglung,14,NP,1563513938,67,28.27,83.59,20.58,3.73
Ushtobe,0,KZ,1563513938,15,45.25,77.98,36.98,7.21
Yanam,90,IN,1563513938,74,16.73,82.22,30.0,1.5
Homer,1,US,1563513938,68,59.64,-151.54,21.67,2.1
Harper,1,US,1563513939,65,30.3,-99.24,27.0,4.1
Berga,0,ES,1563513939,94,42.1,1.85,20.56,1.5
Praia da Vitoria,20,PT,1563513939,94,38.73,-27.07,21.11,6.82
Samsun,75,TR,1563513939,69,41.29,36.33,23.0,5.1
Okhotsk,100,RU,1563513939,91,59.36,143.24,13.08,4.15
Arlit,61,NE,1563513940,21,18.74,7.39,32.68,5.44
Kochki,100,RU,1563513940,83,54.33,80.49,17.08,4.76
Aksarka,44,RU,1563513940,49,66.56,67.8,24.18,2.93
Soto,0,AR,1563513940,81,-32.81,-61.4,12.78,3.1
Galveston,75,US,1563513941,83,40.58,-86.19,27.22,4.6
Battle Creek,40,US,1563513941,83,42.32,-85.18,27.0,4.6
Gazojak,0,TM,1563513941,7,41.19,61.4,42.58,4.92
Annau,0,TM,1563513941,46,37.89,58.52,34.0,5.1
Santa Maria,0,BR,1563513942,68,-16.02,-48.01,18.0,1.0
Rio Gallegos,40,AR,1563513930,64,-51.62,-69.22,3.0,5.1
Shalakusha,74,RU,1563513942,44,62.23,40.26,20.38,4.45
Imbituba,75,BR,1563513942,93,-28.24,-48.67,17.0,1.5
Lampa,20,CL,1563513942,81,-33.29,-70.87,10.0,2.1
Xining,51,CN,1563513942,43,36.62,101.77,19.58,2.35
Mayo,90,CA,1563513943,36,63.59,-135.9,25.0,1.5
Baillif,90,GP,1563513943,88,16.02,-61.75,26.0,1.5
Vinh,100,VN,1563513943,34,18.67,105.69,39.48,3.26
Atar,0,MR,1563513943,28,20.52,-13.05,28.48,5.46
Ketchikan,90,US,1563513944,87,55.34,-131.65,14.0,2.1
Silvan,0,TR,1563513944,54,38.14,41.01,26.0,1.0
Kajiado,40,KE,1563513944,87,-1.85,36.79,15.0,1.5
Moussoro,100,TD,1563513944,59,13.64,16.49,28.28,5.69
General Roca,0,AR,1563513944,86,-39.03,-67.58,1.0,2.26
